[
  {
    "title": "CCB建融家园 蓝领公寓（普坤社区）",
    "roomCount": "一室一卫",
    "address": "杭州市富阳东洲街道7号路22号",
    "rent": "2000-3000元/月",
    "longitude": "120.067506",
    "latitude": "30.086801"
  },
  {
    "title": "建信湾流西湖科技园",
    "roomCount": "简约瑞典风",
    "address": "杭州市西湖区振中路202号13幢1层部分、3-9层",
    "rent": "2330-3480元/月",
    "longitude": "120.073196",
    "latitude": "30.326917"
  },
  {
    "title": "CCB建融家园 劳动者公寓（塘康社区）",
    "roomCount": "一室一卫",
    "address": "杭州市余杭区塘康路1-3号",
    "rent": "1800-3200元/月",
    "longitude": "120.169068",
    "latitude": "30.37954"
  },
  {
    "title": "伊家公寓后山店",
    "roomCount": "一室一厅一卫",
    "address": "余杭区后山路18号",
    "rent": "1200-1900元/月",
    "longitude": "120.042224",
    "latitude": "30.24911"
  },
  {
    "title": "乐乎有朋·创客公寓",
    "roomCount": "开间",
    "address": "杭州余杭区五常街道联胜路17号荆丰工业园一期（东）1号楼",
    "rent": "1300-2300元/月",
    "longitude": "120.038735",
    "latitude": "30.246847"
  },
  {
    "title": "杭州国展博乐诗服务公寓",
    "roomCount": "一室一厅",
    "address": "杭州市滨江区西兴街道绿地旭辉大厦2601室",
    "rent": "5000-8300元/月",
    "longitude": "120.237167",
    "latitude": "30.231362"
  },
  {
    "title": "柚米西溪店",
    "roomCount": "一室",
    "address": "杭州市余杭区五常街道杭州宏丰家居城1幢501室",
    "rent": "1558-2878元/月",
    "longitude": "120.03839",
    "latitude": "30.243174"
  },
  {
    "title": "乐乎有朋·微时代",
    "roomCount": "开间",
    "address": "杭州市余杭经济开发区兴起路518号1幢、4幢、6幢、10幢、",
    "rent": "1000-1550元/月",
    "longitude": "120.241662",
    "latitude": "30.464329"
  },
  {
    "title": "东方茂商业中心2",
    "roomCount": "两室两厅",
    "address": "新天地中心",
    "rent": "4000-5000元/月",
    "longitude": "120.186889",
    "latitude": "30.328854"
  },
  {
    "title": "柚米下沙大学城店",
    "roomCount": "一室一厅一卫",
    "address": "杭州市江干区下沙4号大街15号西子阳光星城二幢",
    "rent": "2135-4250元/月",
    "longitude": "120.353259",
    "latitude": "30.312849"
  },
  {
    "title": "柚米国际社区LINK CITY店",
    "roomCount": "一室",
    "address": "杭州市江干区原筑壹号中心77幢",
    "rent": "2000-4098元/月",
    "longitude": "120.239824",
    "latitude": "30.312965"
  },
  {
    "title": "柚米金沙湖店",
    "roomCount": "一室一厅",
    "address": "杭州市江干区下沙路与下沙南路交叉口中豪七格广场3幢",
    "rent": "3200-5042元/月",
    "longitude": "120.328805",
    "latitude": "30.303409"
  },
  {
    "title": "博乐诗金沙湖店",
    "roomCount": "一室一厅",
    "address": "杭州市江干区下沙南路429号中豪七格5幢",
    "rent": "3600-7500元/月",
    "longitude": "120.3288",
    "latitude": "30.304167"
  },
  {
    "title": "融创归谷国际中心",
    "roomCount": "法式小套、日式单房",
    "address": "浙江省杭州市萧山区市心北路2000号归谷国际中心A幢",
    "rent": "3800-19000元/月",
    "longitude": "120.261878",
    "latitude": "30.242268"
  },
  {
    "title": "氧气公寓-城站店",
    "roomCount": "品质公寓",
    "address": "杭州市上城区城头巷109号",
    "rent": "3300-6000元/月",
    "longitude": "120.182881",
    "latitude": "30.248728"
  },
  {
    "title": "氧气公寓-文新地铁站店",
    "roomCount": "单身公寓1",
    "address": "杭州市西湖区骆家庄西苑三区",
    "rent": "1400-2650元/月",
    "longitude": "120.096261",
    "latitude": "30.29662"
  },
  {
    "title": "氧气公寓-大悦城店",
    "roomCount": "单身公寓1",
    "address": "杭州市拱墅区莫干山路841弄122号",
    "rent": "2600-3500元/月",
    "longitude": "120.130999",
    "latitude": "30.308346"
  },
  {
    "title": "漫果公寓-蚂蚁金服店",
    "roomCount": "品质单身公寓",
    "address": "杭州市西湖区天目山路388号",
    "rent": "2500-5600元/月",
    "longitude": "120.123857",
    "latitude": "30.27879"
  },
  {
    "title": "乐乎有朋·东南公寓",
    "roomCount": "开间",
    "address": "杭州市余杭区东湖街道星光街1423号1幢",
    "rent": "650-1300元/月",
    "longitude": "120.308216",
    "latitude": "30.403919"
  },
  {
    "title": "乐乎有朋·万顺公寓",
    "roomCount": "开间",
    "address": "杭州余杭区经济技术开发区塘宁路37号",
    "rent": "1100-1300元/月",
    "longitude": "120.297374",
    "latitude": "30.467727"
  },
  {
    "title": "氧气公寓-西湖大厦店",
    "roomCount": "单身公寓",
    "address": "文二路202号十二层",
    "rent": "2500-3500元/月",
    "longitude": "120.14168",
    "latitude": "30.289708"
  },
  {
    "title": "乐乎有朋·五康公寓",
    "roomCount": "开间",
    "address": "杭州市萧山区新塘街道萧绍东路186号",
    "rent": "900-1600元/月",
    "longitude": "120.33378",
    "latitude": "30.176805"
  },
  {
    "title": "乐乎有朋·金星村店",
    "roomCount": "标准开间",
    "address": "杭州市余杭区金星村马鞍山雅苑农居点多余25-1-2-3-4-5-6,26-1-2-3-4-5-6,27-1-2套居住房",
    "rent": "700-1350元/月",
    "longitude": "119.96309",
    "latitude": "30.272718"
  },
  {
    "title": "乐乎有朋·望景公寓",
    "roomCount": "开间",
    "address": "下城区东新路870号1幢1-12楼",
    "rent": "2400-3300元/月",
    "longitude": "120.182841",
    "latitude": "30.336065"
  },
  {
    "title": "乐乎有朋·万润达公寓",
    "roomCount": "开间",
    "address": "杭州市余杭区良渚街道良运街332号2号楼2层、4层",
    "rent": "1300-1800元/月",
    "longitude": "120.104049",
    "latitude": "30.359478"
  },
  {
    "title": "乐乎有朋·快乐公寓",
    "roomCount": "开间",
    "address": "杭州市西湖区紫荆花路88号10幢及4幢",
    "rent": "1600-2500元/月",
    "longitude": "120.102735",
    "latitude": "30.277535"
  },
  {
    "title": "乐乎有朋·和合公寓",
    "roomCount": "LOFT",
    "address": "浙江省杭州市余杭区五常街道杭州宏丰家居城4幢302东半边、6幢302东半边",
    "rent": "900-1800元/月",
    "longitude": "120.038625",
    "latitude": "30.242062"
  },
  {
    "title": "乐乎有朋·摩嗨公寓",
    "roomCount": "开间",
    "address": "杭州西湖区留下街道留下股份经济合作社工业区块6号",
    "rent": "1500-1900元/月",
    "longitude": "120.05766",
    "latitude": "30.243727"
  },
  {
    "title": "漫果公寓-支付宝大厦店",
    "roomCount": "单身公寓",
    "address": "杭州市西湖区古翠路30号",
    "rent": "1800-2600元/月",
    "longitude": "120.126842",
    "latitude": "30.280461"
  },
  {
    "title": "氧气公寓-庆春路店",
    "roomCount": "单身公寓",
    "address": "庆春路38号",
    "rent": "2500-3500元/月",
    "longitude": "120.190425",
    "latitude": "30.264478"
  },
  {
    "title": "驻客公寓-西溪银泰店",
    "roomCount": "单身公寓",
    "address": "杭州市西湖区文一西路778号2幢",
    "rent": "1800-3500元/月",
    "longitude": "120.07758",
    "latitude": "30.293543"
  },
  {
    "title": "驻客中南创公寓",
    "roomCount": "单身公寓",
    "address": "长河街道绿香街66号3幢",
    "rent": "2500-3000元/月",
    "longitude": "120.205431",
    "latitude": "30.184493"
  },
  {
    "title": "乐乎有朋·伊家公寓",
    "roomCount": "开间",
    "address": "杭州市西湖区留下工业区4号2号楼",
    "rent": "1800-3200元/月",
    "longitude": "120.057723",
    "latitude": "30.244254"
  },
  {
    "title": "乐乎有朋·美好时光",
    "roomCount": "开间",
    "address": "杭州市余杭区联胜路7号",
    "rent": "1280-2600元/月",
    "longitude": "120.038018",
    "latitude": "30.248618"
  },
  {
    "title": "乐乎有朋·创嘉元公寓",
    "roomCount": "平层",
    "address": "杭州市下城区洄龙湖邸42幢",
    "rent": "1700-2400元/月",
    "longitude": "120.205202",
    "latitude": "30.34875"
  },
  {
    "title": "乐乎有朋·素舍公寓",
    "roomCount": "开间",
    "address": "杭州市余杭区五常街道荆山湾路68号",
    "rent": "800-2700元/月",
    "longitude": "120.038611",
    "latitude": "30.242051"
  },
  {
    "title": "乐乎有朋·云上公寓",
    "roomCount": "开间",
    "address": "杭州市余杭区运河镇褚家坝社区（杭州余杭区香泉食品厂）",
    "rent": "600-1600元/月",
    "longitude": "120.308884",
    "latitude": "30.464965"
  },
  {
    "title": "达人嘉公寓闸弄口店",
    "roomCount": "15、20、30",
    "address": "江干区艮山西路286号",
    "rent": "1600-2200元/月",
    "longitude": "120.196667",
    "latitude": "30.281819"
  },
  {
    "title": "达人嘉公寓九堡地铁站店",
    "roomCount": "15",
    "address": "杭州市江干区锦衣街1号1幢",
    "rent": "1800-2100元/月",
    "longitude": "120.281265",
    "latitude": "30.322279"
  },
  {
    "title": "达人嘉公寓解放路店",
    "roomCount": "20、25、30",
    "address": "高官弄9号",
    "rent": "2400-3000元/月",
    "longitude": "120.190531",
    "latitude": "30.256627"
  },
  {
    "title": "乐乎有朋·生活公寓",
    "roomCount": "LOFT",
    "address": "杭州市下城区永波街150号的综合6号楼1楼部分、2、3层房屋",
    "rent": "1300-3300元/月",
    "longitude": "120.195722",
    "latitude": "30.346432"
  },
  {
    "title": "金地悉呈国际社区",
    "roomCount": "厅卧一体一居室",
    "address": "余杭区闲林镇五常荆长路32号",
    "rent": "2488-4500元/月",
    "longitude": "120.04736",
    "latitude": "30.251578"
  },
  {
    "title": "金地草莓社区WE+店",
    "roomCount": "一室一厅",
    "address": "杭州市余杭区良渚街道大乐汇中心2幢601室",
    "rent": "3300-36000元/月",
    "longitude": "120.08917",
    "latitude": "30.345119"
  },
  {
    "title": "金地草莓社区乐天城店",
    "roomCount": "一室一厅",
    "address": "余杭区五常街道后山路10号",
    "rent": "1590-2950元/月",
    "longitude": "120.044722",
    "latitude": "30.249709"
  },
  {
    "title": "金地草莓社区北软店",
    "roomCount": "平层/LOFT",
    "address": "拱墅区丰庆路498号1幢",
    "rent": "2400-4000元/月",
    "longitude": "120.103813",
    "latitude": "30.333368"
  },
  {
    "title": "随寓萧山店",
    "roomCount": "标准间",
    "address": "萧山区北干街道通惠中路828号",
    "rent": "2500-2500元/月",
    "longitude": "120.291883",
    "latitude": "30.18915"
  },
  {
    "title": "朗诗寓人民广场店",
    "roomCount": "蓝色海洋风",
    "address": "杭州市萧山区博学路777号",
    "rent": "2600-3550元/月",
    "longitude": "120.273222",
    "latitude": "30.194475"
  },
  {
    "title": "随寓·中沙金座社区",
    "roomCount": "一室一卫",
    "address": "杭州经济技术开发区下沙街道中沙金座2幢",
    "rent": "1500-1600元/月",
    "longitude": "120.337127",
    "latitude": "30.312274"
  },
  {
    "title": "随寓·咖乐居社区",
    "roomCount": "一室一卫",
    "address": "杭州市余杭区仓前街道海曙路28号3幢",
    "rent": "1300-3500元/月",
    "longitude": "119.983497",
    "latitude": "30.284547"
  },
  {
    "title": "随寓·文晖金鹰社区",
    "roomCount": "一室一卫",
    "address": "文晖路350号",
    "rent": "2800-4000元/月",
    "longitude": "120.169167",
    "latitude": "30.286741"
  },
  {
    "title": "随寓·转塘之美寓社区",
    "roomCount": "一室一卫",
    "address": "西湖区龙坞镇叶埠桥村",
    "rent": "850-3200元/月",
    "longitude": "120.074959",
    "latitude": "30.18307"
  },
  {
    "title": "随寓·西溪创立方社区",
    "roomCount": "一室一卫",
    "address": "杭州市西湖区留下镇杨家牌楼西溪路984号西溪创立方园区3号楼",
    "rent": "1800-1800元/月",
    "longitude": "120.075636",
    "latitude": "30.251811"
  },
  {
    "title": "随寓瑞豪",
    "roomCount": "一室一卫",
    "address": "杭州市下城区体育场路370号19-22F",
    "rent": "3762-8700元/月",
    "longitude": "120.167372",
    "latitude": "30.276896"
  },
  {
    "title": "随寓UN 公社",
    "roomCount": "一室一卫",
    "address": "西湖区留下镇横街村UN公社",
    "rent": "1500-3600元/月",
    "longitude": "120.057498",
    "latitude": "30.235104"
  },
  {
    "title": "随寓 南站汇宇社区",
    "roomCount": "一室一厨一卫",
    "address": "浙江省杭州市萧山区城厢街道通惠南路2号汇宇大厦",
    "rent": "1800-2500元/月",
    "longitude": "120.291169",
    "latitude": "30.1693"
  },
  {
    "title": "朗诗寓物联网店",
    "roomCount": "b",
    "address": "杭州市滨江区物联网街330号海威新界3号楼",
    "rent": "4740-5140元/月",
    "longitude": "120.231602",
    "latitude": "30.216852"
  },
  {
    "title": "米果五常部落",
    "roomCount": "30、45、55",
    "address": "五常街道丰岭路26号",
    "rent": "1300-3500元/月",
    "longitude": "120.041869",
    "latitude": "30.247793"
  },
  {
    "title": "新汇路项目",
    "roomCount": "B端公寓",
    "address": "杭州市下城区八角凉亭九组2排2幢",
    "rent": "1200-1800元/月",
    "longitude": "120.204771",
    "latitude": "30.336881"
  },
  {
    "title": "复兴路项目",
    "roomCount": "B端公寓",
    "address": "杭州市上城区复兴路88号",
    "rent": "2800-5500元/月",
    "longitude": "120.175837",
    "latitude": "30.21971"
  },
  {
    "title": "皇悦项目",
    "roomCount": "B端公寓",
    "address": "杭州市拱墅区莫干山路双荡弄108号",
    "rent": "3200-3400元/月",
    "longitude": "120.152255",
    "latitude": "30.297867"
  },
  {
    "title": "江南学院项目",
    "roomCount": "B端公寓",
    "address": "杭州市滨江高教园区东冠路明德路1号的五号楼",
    "rent": "2600-3400元/月",
    "longitude": "120.167439",
    "latitude": "30.168871"
  },
  {
    "title": "铭山项目",
    "roomCount": "B端公寓",
    "address": "杭州余杭区五常街道荆长路19-2号",
    "rent": "1800-2200元/月",
    "longitude": "120.048163",
    "latitude": "30.248649"
  },
  {
    "title": "杨家村项目",
    "roomCount": "B端公寓",
    "address": "杭州市下城区石桥路308号天堂经济开发区1号楼、3号楼、4号楼",
    "rent": "1800-2200元/月",
    "longitude": "120.202809",
    "latitude": "30.33049"
  },
  {
    "title": "馒头山项目",
    "roomCount": "B端公寓",
    "address": "杭州市上城区凤山路8号",
    "rent": "2500-3000元/月",
    "longitude": "120.178943",
    "latitude": "30.226176"
  },
  {
    "title": "乐乎有朋·三生三世",
    "roomCount": "平层和LOFT",
    "address": "锦城街道临西路269-275",
    "rent": "900-1700元/月",
    "longitude": "119.702771",
    "latitude": "30.231568"
  },
  {
    "title": "邮政项目",
    "roomCount": "B端公寓",
    "address": "杭州市上城区解放路1号",
    "rent": "3300-3600元/月",
    "longitude": "120.191105",
    "latitude": "30.254645"
  },
  {
    "title": "沙地路项目",
    "roomCount": "B端公寓",
    "address": "杭州市上城区望江街道沙地路22号",
    "rent": "3000-3500元/月",
    "longitude": "120.19684",
    "latitude": "30.238052"
  },
  {
    "title": "打铁关项目",
    "roomCount": "B端公寓",
    "address": "杭州市下城区打铁关三弄17号",
    "rent": "2200-2600元/月",
    "longitude": "120.180522",
    "latitude": "30.291848"
  },
  {
    "title": "伊家公寓C+广场店",
    "roomCount": "一室一厅",
    "address": "杭州市余杭区联胜路1号",
    "rent": "1500-2500元/月",
    "longitude": "120.037196",
    "latitude": "30.25266"
  },
  {
    "title": "九堡项目",
    "roomCount": "B端公寓",
    "address": "杭州市江干区九和路5号",
    "rent": "2000-4000元/月",
    "longitude": "120.270408",
    "latitude": "30.313786"
  },
  {
    "title": "米果惠都部落",
    "roomCount": "三室一厅、两室两厅",
    "address": "杭州市余杭区星桥街道惠都家园17幢1单元5楼",
    "rent": "1000-3300元/月",
    "longitude": "120.27429",
    "latitude": "30.405392"
  },
  {
    "title": "中豪七格2幢",
    "roomCount": "一室一厅",
    "address": "杭州经济技术开发区中豪七格商业中心2幢",
    "rent": "2200-3600元/月",
    "longitude": "120.329054",
    "latitude": "30.302996"
  },
  {
    "title": "MG19时尚创新园",
    "roomCount": "大床房",
    "address": "杭州市余杭区五常街道联胜路2-3号4幢",
    "rent": "2000-3000元/月",
    "longitude": "120.035573",
    "latitude": "30.251694"
  },
  {
    "title": "华盛达时代中心G193广场",
    "roomCount": "一室一厅",
    "address": "长浜路988号华盛达G193广场",
    "rent": "2200-3300元/月",
    "longitude": "120.186816",
    "latitude": "30.331303"
  },
  {
    "title": "朗诗寓江陵路店",
    "roomCount": "一室一卫",
    "address": "杭州市滨江区月明路983号江南望庄8幢3层",
    "rent": "2450-4000元/月",
    "longitude": "120.218469",
    "latitude": "30.208391"
  },
  {
    "title": "朗诗寓东信大道店",
    "roomCount": "muji",
    "address": "杭州市滨江区西浦路1503号新生综合大厦4-17层",
    "rent": "2957-3840元/月",
    "longitude": "120.141033",
    "latitude": "30.180562"
  },
  {
    "title": "米果东部首座",
    "roomCount": "一室一厅、两室一厅",
    "address": "杭州市江干区杭州东大门商品交易中心2幢五层、6-15层",
    "rent": "2000-4000元/月",
    "longitude": "120.289609",
    "latitude": "30.320393"
  },
  {
    "title": "城易家魔方公寓南庄兜店项目",
    "roomCount": "一居室（精致－阳光）",
    "address": "杭州市余杭区良渚街道吴家门路10号1幢",
    "rent": "2000-2850元/月",
    "longitude": "120.124437",
    "latitude": "30.388953"
  },
  {
    "title": "杨家牌楼十二星座公寓",
    "roomCount": "一室一厅",
    "address": "杭州市西湖区西溪路杨家牌楼社区十二星座公寓",
    "rent": "1500-2300元/月",
    "longitude": "120.078157",
    "latitude": "30.252782"
  },
  {
    "title": "麦家公寓乐堤港店",
    "roomCount": "一室一卫",
    "address": "拱墅区长乐路28号38幢",
    "rent": "1800-2700元/月",
    "longitude": "120.152467",
    "latitude": "30.309937"
  },
  {
    "title": "魔方公寓秋涛路项目",
    "roomCount": "一居室-精致-阳光",
    "address": "杭州市上城区秋涛路489号",
    "rent": "2700-3500元/月",
    "longitude": "120.202265",
    "latitude": "30.246902"
  },
  {
    "title": "魔方公寓幸福南路项目",
    "roomCount": "一居室（精致-阳关）",
    "address": "杭州市江干区幸福南路1288号",
    "rent": "2000-3900元/月",
    "longitude": "120.325364",
    "latitude": "30.325081"
  },
  {
    "title": "魔方公寓滨康路项目",
    "roomCount": "一居室（精致-阳光）",
    "address": "滨江区江陵路211号",
    "rent": "2600-3400元/月",
    "longitude": "120.223094",
    "latitude": "30.187431"
  },
  {
    "title": "魔方公寓汇智地项目",
    "roomCount": "一居室（精致-阳光）",
    "address": "杭州市滨江区南环路4280号汇智地",
    "rent": "2400-3600元/月",
    "longitude": "120.158077",
    "latitude": "30.187224"
  },
  {
    "title": "魔方公寓江南大道项目",
    "roomCount": "一居室（精致-阳光）",
    "address": "江南大道1090号中南国际",
    "rent": "3742-4588元/月",
    "longitude": "120.199278",
    "latitude": "30.200889"
  },
  {
    "title": "魔方汇智地新店项目",
    "roomCount": "一居室（精致-阳光）",
    "address": "杭州市滨江区浦沿街道南环路4280号",
    "rent": "2650-4200元/月",
    "longitude": "120.156825",
    "latitude": "30.186577"
  },
  {
    "title": "龙湖冠寓杭州大江东义蓬店",
    "roomCount": "16-25",
    "address": "大江东新城义蓬街道义府大街杭申盛府广场酒店1-20层",
    "rent": "1000-3000元/月",
    "longitude": "120.402984",
    "latitude": "30.236996"
  },
  {
    "title": "龙湖冠寓杭州西湖科技园店",
    "roomCount": "一室一厅一卫",
    "address": "西湖区金蓬街321室3号楼",
    "rent": "1800-3400元/月",
    "longitude": "120.067958",
    "latitude": "30.329308"
  },
  {
    "title": "龙湖冠寓杭州之江宋城店",
    "roomCount": "20-45",
    "address": "杭州市西湖区沙秀路99号亚厦中心C座",
    "rent": "1950-3500元/月",
    "longitude": "120.113236",
    "latitude": "30.177308"
  },
  {
    "title": "龙湖冠寓杭州火车东站店",
    "roomCount": "25-50",
    "address": "石桥路92-110号",
    "rent": "2000-3500元/月",
    "longitude": "120.20233",
    "latitude": "30.302473"
  },
  {
    "title": "龙湖冠寓杭州西湖文化广场店",
    "roomCount": "15-40",
    "address": "杭州市下城区朝晖六区新市街64号5-1室",
    "rent": "2000-4000元/月",
    "longitude": "120.174357",
    "latitude": "30.293407"
  },
  {
    "title": "龙湖冠寓星悦坊",
    "roomCount": "一室一卫",
    "address": "杭州市滨江区江南大道288号1幢802室",
    "rent": "2800-5600元/月",
    "longitude": "120.213991",
    "latitude": "30.212074"
  },
  {
    "title": "群岛糖朝店",
    "roomCount": "30-60平层",
    "address": "萧山区北干街道糖朝汇大厦1911室",
    "rent": "3200-4400元/月",
    "longitude": "120.276168",
    "latitude": "30.191493"
  },
  {
    "title": "杭州达人嘉公寓正北店",
    "roomCount": "15、25、40、50",
    "address": "杭州市余杭区良渚街道博园路7号",
    "rent": "1400-2500元/月",
    "longitude": "120.123246",
    "latitude": "30.381212"
  },
  {
    "title": "杭州达人嘉公寓汽车北站店",
    "roomCount": "18、23、25、28、35",
    "address": "杭州市拱墅区花园岗街209号",
    "rent": "1800-2400元/月",
    "longitude": "120.125161",
    "latitude": "30.327901"
  },
  {
    "title": "杭州达人嘉公寓下沙银泰店",
    "roomCount": "15、25",
    "address": "杭州市下沙经济开发区下沙一号大街236-1号",
    "rent": "1550-1750元/月",
    "longitude": "120.340085",
    "latitude": "30.298869"
  },
  {
    "title": "达人嘉公寓莫干山店",
    "roomCount": "15、20、25、28、30",
    "address": "杭州市莫干山路250号",
    "rent": "1900-2300元/月",
    "longitude": "120.151504",
    "latitude": "30.296096"
  },
  {
    "title": "达人嘉公寓新塘地铁站店",
    "roomCount": "10、15、20、25、40",
    "address": "江干区艮山西路108号",
    "rent": "1800-2500元/月",
    "longitude": "120.211937",
    "latitude": "30.283295"
  },
  {
    "title": "达人嘉公寓城站地铁站店",
    "roomCount": "10、15、20、23",
    "address": "杭州市上城区郭东园巷7号",
    "rent": "1900-2900元/月",
    "longitude": "120.185909",
    "latitude": "30.247658"
  },
  {
    "title": "欧文大厦",
    "roomCount": "一室一卫",
    "address": "余杭区古墩路1878号欧文大厦",
    "rent": "1400-3250元/月",
    "longitude": "120.068241",
    "latitude": "30.365166"
  },
  {
    "title": "随寓·石桥西狗茂社区",
    "roomCount": "一室一卫",
    "address": "石桥路274号",
    "rent": "1450-2300元/月",
    "longitude": "120.201671",
    "latitude": "30.323483"
  },
  {
    "title": "群岛欢乐城店",
    "roomCount": "30-60平层",
    "address": "杭州市余杭区闲林街道西溪欢乐城5幢5-9层",
    "rent": "2000-4000元/月",
    "longitude": "120.018187",
    "latitude": "30.246102"
  },
  {
    "title": "龙湖冠寓杭州G5创艺工坊店",
    "roomCount": "一室一厅一卫",
    "address": "余杭区良渚街道沈港路16号1幢2幢",
    "rent": "1091-3785元/月",
    "longitude": "120.113535",
    "latitude": "30.363674"
  },
  {
    "title": "泊寓-α西溪店",
    "roomCount": "一室一厅一卫",
    "address": "杭州市西湖区西溪路908号",
    "rent": "2849-4399元/月",
    "longitude": "120.080636",
    "latitude": "30.257462"
  },
  {
    "title": "拎包客三里亭社区",
    "roomCount": "25方-70方",
    "address": "江干区石桥路与顾家畈路交叉口西南角",
    "rent": "3000-6000元/月",
    "longitude": "120.202887",
    "latitude": "30.298817"
  },
  {
    "title": "拎包客天使社区",
    "roomCount": "30方-50方",
    "address": "杭州市余杭区仓前街道龙泉路3号",
    "rent": "1500-2200元/月",
    "longitude": "119.993791",
    "latitude": "30.287904"
  },
  {
    "title": "拎包客南环路社区",
    "roomCount": "30方-50方",
    "address": "杭州滨江区南环路4179号",
    "rent": "1650-3200元/月",
    "longitude": "120.157731",
    "latitude": "30.185195"
  },
  {
    "title": "拎包客恒生社区",
    "roomCount": "30方-50方",
    "address": "余杭区仓前镇龙泉路22号1幢",
    "rent": "1000-2800元/月",
    "longitude": "119.985061",
    "latitude": "30.286601"
  },
  {
    "title": "泊寓AI小镇社区",
    "roomCount": "19、24、30、36、38、40、42",
    "address": "余杭区余杭镇金星工业园区3幢",
    "rent": "2750-4600元/月",
    "longitude": "119.972548",
    "latitude": "30.279499"
  },
  {
    "title": "随寓·临平北大街社区",
    "roomCount": "一室一厅一卫",
    "address": "余杭区临平街道北大街71号",
    "rent": "1350-2300元/月",
    "longitude": "120.309523",
    "latitude": "30.426997"
  },
  {
    "title": "群岛江陵路店",
    "roomCount": "一室",
    "address": "杭州市滨江区西兴街道江陵路336号鑫都汇大厦2幢",
    "rent": "4300-6600元/月",
    "longitude": "120.225162",
    "latitude": "30.189385"
  },
  {
    "title": "群岛运河店",
    "roomCount": "一室一卫",
    "address": "杭州市下城区朝晖九小区69幢",
    "rent": "2999-3600元/月",
    "longitude": "120.161686",
    "latitude": "30.294432"
  },
  {
    "title": "红璞公寓西溪社区",
    "roomCount": "32，",
    "address": "西湖区留下街道百家园路61号",
    "rent": "1800-3000元/月",
    "longitude": "120.068166",
    "latitude": "30.256119"
  },
  {
    "title": "随寓·云栖浮山社区",
    "roomCount": "一室一厨一卫",
    "address": "杭州市西湖区云栖小镇云梦路1号",
    "rent": "2050-2600元/月",
    "longitude": "120.08639",
    "latitude": "30.136323"
  },
  {
    "title": "建信湾流未来科技城社区",
    "roomCount": "森林物语[35㎡][一室一厅]",
    "address": "杭州市余杭区仓前街道文一西路1326号3幢101,201,301,401,501,1008-1024,1101,1201,1301,1401,1501,1601室",
    "rent": "2800-4500元/月",
    "longitude": "119.998355",
    "latitude": "30.282595"
  },
  {
    "title": "建信湾流达摩院社区",
    "roomCount": "一室一厅",
    "address": "杭州市余杭区五常街道向往街368号1幢",
    "rent": "2300-4500元/月",
    "longitude": "120.022572",
    "latitude": "30.292842"
  },
  {
    "title": "建信湾流杭州城站",
    "roomCount": "森林物语/东方禅境",
    "address": "江城路799号",
    "rent": "2500-4200元/月",
    "longitude": "120.185482",
    "latitude": "30.245817"
  },
  {
    "title": "建信湾流紫金港社区",
    "roomCount": "森林物语",
    "address": "杭州市西湖区丰盛九玺天城13号楼",
    "rent": "1800-3400元/月",
    "longitude": "120.076244",
    "latitude": "30.335129"
  },
  {
    "title": "东站恒祺克拉天玺",
    "roomCount": "一室一厨一卫",
    "address": "杭州江干花园兜路恒祺克拉天玺4号楼",
    "rent": "2250-2900元/月",
    "longitude": "120.221147",
    "latitude": "30.302609"
  },
  {
    "title": "龙湖冠寓杭州奥体盈丰路店",
    "roomCount": "一室一厅一厨一卫",
    "address": "萧山区宁围街道皓月路299号水天城1幢",
    "rent": "2700-3500元/月",
    "longitude": "120.263243",
    "latitude": "30.244997"
  },
  {
    "title": "麦家公寓武林店",
    "roomCount": "一室一厅一卫一阳台",
    "address": "杭州市下城区环城北路173号1层-5层",
    "rent": "3200-4000元/月",
    "longitude": "120.178814",
    "latitude": "30.279554"
  },
  {
    "title": "麦家公寓中大新华店",
    "roomCount": "一室一厅一卫一阳台",
    "address": "杭州市下城区东新路870号麦家公寓3-6楼",
    "rent": "2700-3800元/月",
    "longitude": "120.182932",
    "latitude": "30.336664"
  },
  {
    "title": "麦家公寓未来城店",
    "roomCount": "一室一厅一卫",
    "address": "杭州市余杭区向往街正淘易谷1号楼",
    "rent": "2500-3200元/月",
    "longitude": "120.023188",
    "latitude": "30.292824"
  },
  {
    "title": "麦家公寓汽车南站店",
    "roomCount": "一室一厅一卫",
    "address": "杭州市上城区秋涛发展大厦17-18楼",
    "rent": "2400-3900元/月",
    "longitude": "120.19515",
    "latitude": "30.239819"
  },
  {
    "title": "杭州泊寓文一社区",
    "roomCount": "20、25、35",
    "address": "浙江省杭州市西湖区丰潭路288号",
    "rent": "1988-3988元/月",
    "longitude": "120.114774",
    "latitude": "30.292383"
  },
  {
    "title": "龙湖冠寓杭州A-Li海创园店",
    "roomCount": "一室一厅一厨一卫",
    "address": "余杭区仓前街道电子路北、高教路南",
    "rent": "2900-3900元/月",
    "longitude": "120.028237",
    "latitude": "30.283095"
  },
  {
    "title": "龙湖冠寓杭州奥体飞虹路店",
    "roomCount": "一室一厅一卫一厨",
    "address": "萧山区宁围街道宝信大楼5-15层",
    "rent": "2600-4300元/月",
    "longitude": "120.267713",
    "latitude": "30.238849"
  },
  {
    "title": "龙湖冠寓杭州银隆百货店",
    "roomCount": "A户型和B户型",
    "address": "萧山区北干街道市心中路258号圆方城1幢8层",
    "rent": "2626-3923元/月",
    "longitude": "120.274795",
    "latitude": "30.177359"
  },
  {
    "title": "红璞公寓萧山商业城店",
    "roomCount": "35，45",
    "address": "萧山商业城商城中路153号",
    "rent": "1200-3400元/月",
    "longitude": "120.297793",
    "latitude": "30.173047"
  },
  {
    "title": "红璞公寓向江来新塘H公寓",
    "roomCount": "28平，42平",
    "address": "杭州市江干区向江来时代中心1幢",
    "rent": "3300-5800元/月",
    "longitude": "120.227298",
    "latitude": "30.284498"
  },
  {
    "title": "睿趣公寓（智慧之门中心）",
    "roomCount": "一室一厅",
    "address": "杭州市滨江区西兴街道智慧之门中心1幢1938室",
    "rent": "6000-7000元/月",
    "longitude": "120.236555",
    "latitude": "30.221274"
  },
  {
    "title": "实习家青年宿舍",
    "roomCount": "一室一卫一阳台",
    "address": "萧山区湖头陈村",
    "rent": "3800-5800元/月",
    "longitude": "120.236438",
    "latitude": "30.187146"
  },
  {
    "title": "实习家青年公寓",
    "roomCount": "一室一卫",
    "address": "杭州市拱墅区祥符镇景苑路30号",
    "rent": "2500-3000元/月",
    "longitude": "120.138564",
    "latitude": "30.305669"
  },
  {
    "title": "实习家公寓",
    "roomCount": "一室一卫一阳台",
    "address": "文一路115号46.47幢",
    "rent": "4500-6000元/月",
    "longitude": "120.147659",
    "latitude": "30.292308"
  },
  {
    "title": "睿趣公寓（江滨澜廷）",
    "roomCount": "一室一厅复式",
    "address": "杭州市滨江区西兴街道科技馆街972号悦晟国际金融大厦",
    "rent": "7000-10000元/月",
    "longitude": "120.217339",
    "latitude": "30.219853"
  },
  {
    "title": "睿趣公寓（金铂湾）",
    "roomCount": "一室",
    "address": "杭州市滨江区长河街道科技馆街1058号(中月创智大厦)2106室",
    "rent": "6000-8000元/月",
    "longitude": "120.216328",
    "latitude": "30.221463"
  },
  {
    "title": "建信湾流黄龙社区",
    "roomCount": "一房一厅一卫",
    "address": "西湖区天目山路135号玉泉大厦6-10F",
    "rent": "4200-6300元/月",
    "longitude": "120.139161",
    "latitude": "30.27742"
  },
  {
    "title": "红璞公寓秋涛发展大厦店",
    "roomCount": "35，45",
    "address": "浙江省杭州市上城区秋涛路238号",
    "rent": "2450-4350元/月",
    "longitude": "120.194476",
    "latitude": "30.239316"
  },
  {
    "title": "随寓·永乐城社区",
    "roomCount": "loft单",
    "address": "杭州市余杭区仓前街道西溪永乐城5幢",
    "rent": "2000-4300元/月",
    "longitude": "120.011484",
    "latitude": "30.287667"
  },
  {
    "title": "米柚公寓海港城店",
    "roomCount": "A户型",
    "address": "杭州市余杭区五常街道荆长路658-1号3幢802室",
    "rent": "1800-3200元/月",
    "longitude": "120.05013",
    "latitude": "30.29552"
  },
  {
    "title": "米柚公寓益乐店",
    "roomCount": "A户型",
    "address": "杭州市西湖区丰潭路288号",
    "rent": "2500-3500元/月",
    "longitude": "120.115302",
    "latitude": "30.292717"
  },
  {
    "title": "EFC澳美国际酒店公寓",
    "roomCount": "高级单身公寓",
    "address": "余杭区仓前街道欧美金融城万创国际（向往街1118号）",
    "rent": "3500-4000元/月",
    "longitude": "120.010144",
    "latitude": "30.287022"
  },
  {
    "title": "泊寓|α解放路店",
    "roomCount": "24、33、36、46、51",
    "address": "浙江省杭州市上城区解放路1号1幢",
    "rent": "2941-12091元/月",
    "longitude": "120.19124",
    "latitude": "30.254523"
  },
  {
    "title": "杭州泊寓方舟社区",
    "roomCount": "25,35,45，",
    "address": "浙江省杭州市江干区丁桥镇环丁路10号明珠一号",
    "rent": "1200-3400元/月",
    "longitude": "120.235738",
    "latitude": "30.358013"
  },
  {
    "title": "杭州泊寓景芳社区",
    "roomCount": "18.1平、26.7平、41.4平",
    "address": "浙江省杭州市江干区钱潮路636号瑞凯水湘大厦A座第三层至第十二层",
    "rent": "2900-4700元/月",
    "longitude": "120.220664",
    "latitude": "30.276114"
  },
  {
    "title": "泊寓海港城社区",
    "roomCount": "20，29，35，45,50",
    "address": "浙江省杭州市余杭区五常大道西溪泊岸1幢2-12层",
    "rent": "2500-4700元/月",
    "longitude": "120.045406",
    "latitude": "30.291892"
  },
  {
    "title": "随寓·乔司云村社区",
    "roomCount": "一室一卫",
    "address": "浙江省杭州市余杭区乔司街道鑫园路2号",
    "rent": "700-1200元/月",
    "longitude": "120.291763",
    "latitude": "30.365427"
  },
  {
    "title": "龙湖冠寓杭州星桥店",
    "roomCount": "一室一卫",
    "address": "余杭区星桥街道星桥北路56号",
    "rent": "1200-1600元/月",
    "longitude": "120.264584",
    "latitude": "30.405582"
  },
  {
    "title": "红璞公寓下沙银泰社区",
    "roomCount": "28平，35平，40平",
    "address": "社区留用地开发的中豪七格商业中心4幢1-16层的物业",
    "rent": "1950-3500元/月",
    "longitude": "120.329105",
    "latitude": "30.303177"
  },
  {
    "title": "红璞公寓世纪城H公寓",
    "roomCount": "35，45",
    "address": "萧山宁围镇平澜路259号",
    "rent": "1450-4000元/月",
    "longitude": "120.246906",
    "latitude": "30.244092"
  },
  {
    "title": "红璞公寓人民广场店",
    "roomCount": "30平，40平",
    "address": "萧山区北干街道金城路1038号水务大厦",
    "rent": "2000-3600元/月",
    "longitude": "120.278731",
    "latitude": "30.186182"
  },
  {
    "title": "红璞公寓克亚时代广场店",
    "roomCount": "25平，36平",
    "address": "杭州经济技术开发区下沙街道克亚时代广场1幢",
    "rent": "1700-3600元/月",
    "longitude": "120.3204",
    "latitude": "30.320858"
  },
  {
    "title": "红璞公寓东站H公寓",
    "roomCount": "47，50",
    "address": "杭州市江干区全福桥路258号",
    "rent": "3700-4550元/月",
    "longitude": "120.21267",
    "latitude": "30.30298"
  },
  {
    "title": "红璞公寓元成时代社区",
    "roomCount": "18平，30平",
    "address": "杭州经济技术开发区下沙街道金乔街47号元成时代中心1栋",
    "rent": "1400-2050元/月",
    "longitude": "120.350974",
    "latitude": "30.333775"
  },
  {
    "title": "红璞公寓振宁路社区",
    "roomCount": "25平，35平",
    "address": "市心北路873号港汇中心1栋",
    "rent": "2500-4050元/月",
    "longitude": "120.274325",
    "latitude": "30.226994"
  },
  {
    "title": "红璞公寓翠苑社区",
    "roomCount": "36m2，40m2",
    "address": "西湖区翠苑三区庆隆路9号",
    "rent": "2800-3800元/月",
    "longitude": "120.129683",
    "latitude": "30.298624"
  },
  {
    "title": "红璞公寓水韵尚座店",
    "roomCount": "25,35",
    "address": "杭州市拱墅区长阳路与灯彩街交叉口水韵尚座",
    "rent": "1400-2950元/月",
    "longitude": "120.09931",
    "latitude": "30.335027"
  },
  {
    "title": "宁巢公寓戒坛寺巷店",
    "roomCount": "一室一卫",
    "address": "戒坛寺巷21号",
    "rent": "3390-4690元/月",
    "longitude": "120.168172",
    "latitude": "30.27374"
  },
  {
    "title": "伊家公寓-华立科技园店",
    "roomCount": "1室1厨1卫1阳台",
    "address": "余杭区五常街道五常大道180号",
    "rent": "1500-1950元/月",
    "longitude": "120.031328",
    "latitude": "30.250084"
  },
  {
    "title": "伊家公寓（古墩路店）",
    "roomCount": "1室1厅1厨1卫",
    "address": "城北商贸园18幢1号",
    "rent": "2100-2200元/月",
    "longitude": "120.101028",
    "latitude": "30.318101"
  },
  {
    "title": "房家加青年社区",
    "roomCount": "一室一厅",
    "address": "杭州市萧山区霞飞郡",
    "rent": "1200-2500元/月",
    "longitude": "120.254093",
    "latitude": "30.207629"
  },
  {
    "title": "朗诗寓沈半路店",
    "roomCount": "一室一卫",
    "address": "杭州市拱墅区沈半路281号1幢",
    "rent": "1700-2400元/月",
    "longitude": "120.18198",
    "latitude": "30.344203"
  },
  {
    "title": "朗诗寓丁兰路店",
    "roomCount": "两室一厅一卫",
    "address": "杭州市江干区丁兰街道蕙兰雅路388号丁兰广场B座7楼",
    "rent": "2122-3464元/月",
    "longitude": "120.238276",
    "latitude": "30.359097"
  },
  {
    "title": "朗诗寓文晖店",
    "roomCount": "一室一卫",
    "address": "杭州市江干区机场路里街99号",
    "rent": "3000-5000元/月",
    "longitude": "120.196603",
    "latitude": "30.287642"
  },
  {
    "title": "朗诗寓盈丰路店",
    "roomCount": "一室一卫",
    "address": "萧山区宁围街道诺德财富中心2幢901~913室",
    "rent": "2234-4140元/月",
    "longitude": "120.261537",
    "latitude": "30.2401"
  },
  {
    "title": "浦沿集寓",
    "roomCount": "36，41，61",
    "address": "杭州市滨江区浦沿路773号江南商业大厦2幢11到14楼",
    "rent": "2006-4100元/月",
    "longitude": "120.15339",
    "latitude": "30.178397"
  },
  {
    "title": "随寓下沙店",
    "roomCount": "大床房",
    "address": "高沙文盛公寓一楼1138号东侧",
    "rent": "2400-3200元/月",
    "longitude": "120.343599",
    "latitude": "30.325492"
  },
  {
    "title": "保亿青晨",
    "roomCount": "42㎡、36㎡",
    "address": "余杭区乔莫东路419号",
    "rent": "1900-2100元/月",
    "longitude": "120.304278",
    "latitude": "30.375214"
  },
  {
    "title": "龙湖冠寓杭州西溪蓝保店",
    "roomCount": "18-36平方",
    "address": "杭州市西湖区留和路58号2幢",
    "rent": "1716-3988元/月",
    "longitude": "120.05914",
    "latitude": "30.243025"
  },
  {
    "title": "漫果公寓-艮山西路店",
    "roomCount": "单身公寓",
    "address": "杭州市下城区艮山西路200号漫果公寓",
    "rent": "1900-2500元/月",
    "longitude": "120.203738",
    "latitude": "30.282447"
  },
  {
    "title": "上尚公寓.皮市巷店",
    "roomCount": "15~38㎡",
    "address": "上城区皮市巷86号",
    "rent": "4500-10500元/月",
    "longitude": "120.182351",
    "latitude": "30.259002"
  },
  {
    "title": "遇柒酒店1",
    "roomCount": "15~38㎡",
    "address": "上城区皮市巷86-1号",
    "rent": "5000-10500元/月",
    "longitude": "120.182324",
    "latitude": "30.258991"
  },
  {
    "title": "上尚公寓.南星公寓",
    "roomCount": "15~37㎡",
    "address": "上城区江城路88号",
    "rent": "2000-3500元/月",
    "longitude": "120.18056",
    "latitude": "30.228456"
  },
  {
    "title": "房家加青年艺术社区",
    "roomCount": "一室一厅",
    "address": "杭州市下城区体育场路71号树园小区37幢",
    "rent": "3000-3500元/月",
    "longitude": "120.187921",
    "latitude": "30.275121"
  },
  {
    "title": "杭州泊寓莲花社区",
    "roomCount": "20、30、35、40、47",
    "address": "杭州市西湖区紫荆花路50号",
    "rent": "2078-6178元/月",
    "longitude": "120.103781",
    "latitude": "30.274827"
  },
  {
    "title": "杭州泊寓金海城社区",
    "roomCount": "20、35",
    "address": "杭州市江干区杭海路878号",
    "rent": "1988-3998元/月",
    "longitude": "120.27343",
    "latitude": "30.314937"
  },
  {
    "title": "魔方公寓西湖文化广场项目",
    "roomCount": "一居室（精致-阳光）",
    "address": "潮王人家2幢魔方公寓201",
    "rent": "2800-5000元/月",
    "longitude": "120.166312",
    "latitude": "30.295822"
  },
  {
    "title": "魔方公寓火车东站项目",
    "roomCount": "一居室（精致-阳光）",
    "address": "东宁路553号",
    "rent": "3000-5500元/月",
    "longitude": "120.224114",
    "latitude": "30.296276"
  },
  {
    "title": "魔方公寓华丰路项目",
    "roomCount": "一室一厅-舒适-阳光",
    "address": "杭州市下城区华丰路60号",
    "rent": "2300-4300元/月",
    "longitude": "120.214193",
    "latitude": "30.346582"
  },
  {
    "title": "乐租公寓星洲店",
    "roomCount": "一室一厅",
    "address": "杭州市余杭区闲林街道星洲翠谷花苑花溪美庐1幢706室",
    "rent": "2000-2200元/月",
    "longitude": "119.996829",
    "latitude": "30.22686"
  },
  {
    "title": "伊家公寓 联胜路",
    "roomCount": "1室1厨1卫",
    "address": "余杭区联胜路17号",
    "rent": "1450-2050元/月",
    "longitude": "120.038492",
    "latitude": "30.246718"
  },
  {
    "title": "憬天国际",
    "roomCount": "一室一厅一卫",
    "address": "杭州市萧山区萧山经济技术开发区建设一路73号",
    "rent": "2000-3000元/月",
    "longitude": "120.290935",
    "latitude": "30.150071"
  },
  {
    "title": "伊家公寓（仓前店）",
    "roomCount": "一室一厅一厨一卫",
    "address": "余杭区仓前镇葛巷村",
    "rent": "1300-1500元/月",
    "longitude": "119.999076",
    "latitude": "30.282976"
  },
  {
    "title": "随寓佑客",
    "roomCount": "大床房",
    "address": "杭州下沙社区外来人口公寓",
    "rent": "3200-3400元/月",
    "longitude": "120.357099",
    "latitude": "30.331928"
  },
  {
    "title": "上尚公寓.上羊线店",
    "roomCount": "19-30㎡",
    "address": "上羊线弄23号18幢",
    "rent": "2000-3500元/月",
    "longitude": "120.18514",
    "latitude": "30.246723"
  },
  {
    "title": "随寓佑途",
    "roomCount": "一室一卫",
    "address": "高沙文盛公寓东侧11-12楼暨11楼",
    "rent": "2130-6840元/月",
    "longitude": "120.343633",
    "latitude": "30.325527"
  },
  {
    "title": "随寓汇禾领府",
    "roomCount": "一室一卫",
    "address": "西湖区三墩镇汇禾领府3幢9-11F",
    "rent": "1650-3500元/月",
    "longitude": "120.078746",
    "latitude": "30.328113"
  },
  {
    "title": "上尚公寓.美政店",
    "roomCount": "22㎡~38㎡",
    "address": "杭州市上城区美政花苑4幢4单元",
    "rent": "2200-3300元/月",
    "longitude": "120.178269",
    "latitude": "30.216834"
  },
  {
    "title": "中天米柚城西银泰店",
    "roomCount": "25、35、40",
    "address": "杭州市拱墅区拱苑路",
    "rent": "3000-4500元/月",
    "longitude": "120.119387",
    "latitude": "30.302478"
  },
  {
    "title": "上尚公寓.众创空间",
    "roomCount": "15㎡~35㎡",
    "address": "秋涛路8号四层",
    "rent": "1600-3000元/月",
    "longitude": "120.181646",
    "latitude": "30.222139"
  },
  {
    "title": "房家加青年社区-南润名座店",
    "roomCount": "一室一厅",
    "address": "杭州市萧山区蜀山路418号南润名座4号楼",
    "rent": "2500-6500元/月",
    "longitude": "120.256589",
    "latitude": "30.147403"
  },
  {
    "title": "房家加西溪联合科技广场店",
    "roomCount": "55、88、112、144",
    "address": "杭州市余杭区望溪路与高教路交叉口东200米",
    "rent": "6500-23000元/月",
    "longitude": "120.029772",
    "latitude": "30.281944"
  },
  {
    "title": "米果浜河部落",
    "roomCount": "16、18、25、30",
    "address": "江干区笕桥镇备塘路136号米果浜河部落",
    "rent": "1450-3605元/月",
    "longitude": "120.247722",
    "latitude": "30.31572"
  },
  {
    "title": "米果九和部落",
    "roomCount": "25、38",
    "address": "江干区九环路31-1号4幢",
    "rent": "2000-3000元/月",
    "longitude": "120.258626",
    "latitude": "30.323146"
  },
  {
    "title": "诚寓翠苑家",
    "roomCount": "平层、LOFT",
    "address": "翠苑三区164号",
    "rent": "1999-3200元/月",
    "longitude": "120.129383",
    "latitude": "30.297726"
  },
  {
    "title": "米果长睦部落",
    "roomCount": "18、25、52",
    "address": "环丁路1428号3号楼",
    "rent": "1500-3000元/月",
    "longitude": "120.233758",
    "latitude": "30.367564"
  },
  {
    "title": "氧气公寓-中河南路店",
    "roomCount": "单身公寓",
    "address": "杭州市上城区中河南路38号（索菲亚酒店旁）",
    "rent": "2680-3280元/月",
    "longitude": "120.177915",
    "latitude": "30.236501"
  },
  {
    "title": "漫果公寓-新天地店",
    "roomCount": "单身公寓",
    "address": "杭州市下城区东新街道新北街103号华盛达时代中心C座7楼",
    "rent": "2500-3500元/月",
    "longitude": "120.185928",
    "latitude": "30.331429"
  },
  {
    "title": "氧气公寓-和平广场店",
    "roomCount": "单身公寓1",
    "address": "杭州市下城区东新路江南巷6号(和平广场东河对面)",
    "rent": "1600-3400元/月",
    "longitude": "120.187788",
    "latitude": "30.29835"
  },
  {
    "title": "氧气公寓-湖墅南路店",
    "roomCount": "单身公寓1",
    "address": "杭州市拱墅区湖墅南路439号",
    "rent": "2200-3000元/月",
    "longitude": "120.153831",
    "latitude": "30.297822"
  },
  {
    "title": "氧气公寓-费家塘店",
    "roomCount": "单身公寓",
    "address": "杭州市下城区费家塘路517号",
    "rent": "2000-3000元/月",
    "longitude": "120.192119",
    "latitude": "30.32584"
  },
  {
    "title": "伊家公寓-石桥店",
    "roomCount": "1室1厨1卫",
    "address": "华丰村六组-华丰南苑1幢",
    "rent": "1600-1850元/月",
    "longitude": "120.204531",
    "latitude": "30.345653"
  },
  {
    "title": "城家公寓（杭州转塘店）",
    "roomCount": "3-301",
    "address": "杭州市西湖区美上商业中心3号楼",
    "rent": "2000-2900元/月",
    "longitude": "120.200582",
    "latitude": "30.113041"
  },
  {
    "title": "科寓四季广场",
    "roomCount": "55㎡",
    "address": "杭州经济开发区德胜东路与文渊路交叉口西南角",
    "rent": "3500-3300元/月",
    "longitude": "120.343062",
    "latitude": "30.326454"
  },
  {
    "title": "麦家公寓西溪靖源店",
    "roomCount": "欧美铁艺",
    "address": "杭州市余杭区五常大道165号5号楼2-7楼",
    "rent": "1700-2800元/月",
    "longitude": "120.040991",
    "latitude": "30.24945"
  },
  {
    "title": "V+SPACE国际青创社区",
    "roomCount": "17-23",
    "address": "杭州市滨江区杭州临江花园商铺21号",
    "rent": "2300-2850元/月",
    "longitude": "120.153982",
    "latitude": "30.191962"
  },
  {
    "title": "中天米柚西城纪店",
    "roomCount": "30、40、45、54",
    "address": "余杭塘路417中天西城纪",
    "rent": "3000-6000元/月",
    "longitude": "120.117682",
    "latitude": "30.299659"
  },
  {
    "title": "科寓钱江国际",
    "roomCount": "38、46、59、66、81",
    "address": "杭州市上城区钱江国际商务中心509室",
    "rent": "4000-6500元/月",
    "longitude": "120.181862",
    "latitude": "30.221572"
  },
  {
    "title": "南北盛德国际",
    "roomCount": "单身公寓",
    "address": "杭州市余杭区良渚街道盛德国际商务中心3幢1414室",
    "rent": "2700-3000元/月",
    "longitude": "120.131014",
    "latitude": "30.35191"
  },
  {
    "title": "泰美国际",
    "roomCount": "单身公寓",
    "address": "杭州经济技术开发区泰美国际大厦2幢1507室",
    "rent": "2600-3500元/月",
    "longitude": "120.323723",
    "latitude": "30.316336"
  },
  {
    "title": "保亿风景晨园",
    "roomCount": "单身公寓",
    "address": "杭州市余杭区南苑街道乔莫东路419号516室",
    "rent": "2100-2400元/月",
    "longitude": "120.304722",
    "latitude": "30.374883"
  },
  {
    "title": "迪兴青创公寓西城纪租赁中心",
    "roomCount": "一室一厅一厨一卫",
    "address": "杭州市拱墅区西城纪商务中心2幢416室",
    "rent": "3000-5000元/月",
    "longitude": "120.117575",
    "latitude": "30.299379"
  },
  {
    "title": "相寓Park浦沿",
    "roomCount": "45、54",
    "address": "滨江区浦沿路773号江南商业大厦1栋9-11楼",
    "rent": "3850-6000元/月",
    "longitude": "0",
    "latitude": "0"
  },
  {
    "title": "宁巢公寓石桥路店",
    "roomCount": "33、52、84、113",
    "address": "杭州市江干区石桥路76号",
    "rent": "2900-6000元/月",
    "longitude": "120.20326",
    "latitude": "30.300614"
  },
  {
    "title": "龙湖冠寓杭州未来城融通店",
    "roomCount": "25、35",
    "address": "余杭区余杭街道科技大道16号",
    "rent": "1700-2250元/月",
    "longitude": "119.969006",
    "latitude": "30.279677"
  },
  {
    "title": "北软随寓人才公寓",
    "roomCount": "30",
    "address": "拱墅区祥园路35号",
    "rent": "1890-4000元/月",
    "longitude": "120.115713",
    "latitude": "30.340977"
  }
]
